{
"type": "FeatureCollection",
"name": "to-subway-stations",
"crs": { "type": "name", "properties": { "name": "urn:ogc:def:crs:OGC:1.3:CRS84" } },
"features": [
{ "type": "Feature", "properties": { "stop_code": 991, "stop_name": "Osgoode", "stop_lat": null, "stop_lon": null, "sum": 13486.0, "rank": 48 }, "geometry": { "type": "Point", "coordinates": [ -79.386855243801506, 43.650682314695096 ] } },
{ "type": "Feature", "properties": { "stop_code": 4733, "stop_name": "St. Clair", "stop_lat": 43.687897, "stop_lon": -79.393924, "sum": 101926.0, "rank": 10 }, "geometry": { "type": "Point", "coordinates": [ -79.392965669447989, 43.687286426300012 ] } },
{ "type": "Feature", "properties": { "stop_code": 7152, "stop_name": "Bayview", "stop_lat": 43.766665, "stop_lon": -79.387427, "sum": 20226.0, "rank": 35 }, "geometry": { "type": "Point", "coordinates": [ -79.386134861099507, 43.767045149716481 ] } },
{ "type": "Feature", "properties": { "stop_code": 1028, "stop_name": "Dupont", "stop_lat": 43.674888, "stop_lon": -79.407407, "sum": 15424.0, "rank": 45 }, "geometry": { "type": "Point", "coordinates": [ -79.407239068058601, 43.674944551446998 ] } },
{ "type": "Feature", "properties": { "stop_code": 921921, "stop_name": "St Andrew", "stop_lat": null, "stop_lon": null, "sum": 4259.0, "rank": 60 }, "geometry": { "type": "Point", "coordinates": [ -79.384595526991902, 43.647620168665398 ] } },
{ "type": "Feature", "properties": { "stop_code": 3665, "stop_name": "Glencairn", "stop_lat": 43.709467, "stop_lon": -79.441148, "sum": 70928.0, "rank": 15 }, "geometry": { "type": "Point", "coordinates": [ -79.441196409125524, 43.709499684046129 ] } },
{ "type": "Feature", "properties": { "stop_code": 3221, "stop_name": "Dundas", "stop_lat": 43.656196, "stop_lon": -79.380763, "sum": 23220.0, "rank": 33 }, "geometry": { "type": "Point", "coordinates": [ -79.381004802132907, 43.656206249202896 ] } },
{ "type": "Feature", "properties": { "stop_code": 776, "stop_name": "Christie", "stop_lat": 43.664124, "stop_lon": -79.418567, "sum": 119856.0, "rank": 5 }, "geometry": { "type": "Point", "coordinates": [ -79.418560901904556, 43.664080784943188 ] } },
{ "type": "Feature", "properties": { "stop_code": 3213, "stop_name": "Bloor-Yonge", "stop_lat": 43.670773, "stop_lon": -79.38689, "sum": 33320.0, "rank": 27 }, "geometry": { "type": "Point", "coordinates": [ -79.386674584876801, 43.6703476429755 ] } },
{ "type": "Feature", "properties": { "stop_code": 9016, "stop_name": "King", "stop_lat": 43.649249, "stop_lon": -79.378022, "sum": 19024.0, "rank": 38 }, "geometry": { "type": "Point", "coordinates": [ -79.378025028281201, 43.649211160787083 ] } },
{ "type": "Feature", "properties": { "stop_code": 3238, "stop_name": "Queen", "stop_lat": 43.652319, "stop_lon": -79.379085, "sum": 15064.0, "rank": 46 }, "geometry": { "type": "Point", "coordinates": [ -79.379118560419897, 43.65235518310201 ] } },
{ "type": "Feature", "properties": { "stop_code": 10935, "stop_name": "Union", "stop_lat": 43.645652, "stop_lon": -79.37921, "sum": 3606.0, "rank": 61 }, "geometry": { "type": "Point", "coordinates": [ -79.379192479729497, 43.645862848625789 ] } },
{ "type": "Feature", "properties": { "stop_code": 5692, "stop_name": "Midland", "stop_lat": 43.770434, "stop_lon": -79.272115, "sum": 9231.0, "rank": 53 }, "geometry": { "type": "Point", "coordinates": [ -79.271786873999147, 43.770398968978 ] } },
{ "type": "Feature", "properties": { "stop_code": 14639, "stop_name": "Broadview", "stop_lat": 43.677013, "stop_lon": -79.358147, "sum": 119203.0, "rank": 6 }, "geometry": { "type": "Point", "coordinates": [ -79.358752128854405, 43.676729886947491 ] } },
{ "type": "Feature", "properties": { "stop_code": 14641, "stop_name": "Castle Frank", "stop_lat": 43.673452, "stop_lon": -79.369136, "sum": 102891.0, "rank": 7 }, "geometry": { "type": "Point", "coordinates": [ -79.369149305560782, 43.673253194408645 ] } },
{ "type": "Feature", "properties": { "stop_code": 14644, "stop_name": "Coxwell", "stop_lat": 43.684135, "stop_lon": -79.323123, "sum": 2896.0, "rank": 63 }, "geometry": { "type": "Point", "coordinates": [ -79.323085845409196, 43.684250841191599 ] } },
{ "type": "Feature", "properties": { "stop_code": 14647, "stop_name": "Davisville", "stop_lat": 43.697786, "stop_lon": -79.396955, "sum": 47227.0, "rank": 22 }, "geometry": { "type": "Point", "coordinates": [ -79.396722789912502, 43.698160931155499 ] } },
{ "type": "Feature", "properties": { "stop_code": 14650, "stop_name": "Donlands", "stop_lat": 43.681048, "stop_lon": -79.337925, "sum": 23670.0, "rank": 32 }, "geometry": { "type": "Point", "coordinates": [ -79.337732620321503, 43.681229723007903 ] } },
{ "type": "Feature", "properties": { "stop_code": 14663, "stop_name": "Dundas West", "stop_lat": 43.656975, "stop_lon": -79.453099, "sum": 12134.0, "rank": 49 }, "geometry": { "type": "Point", "coordinates": [ -79.452707161267426, 43.656901683642204 ] } },
{ "type": "Feature", "properties": { "stop_code": 14695, "stop_name": "High Park", "stop_lat": 43.65397, "stop_lon": -79.466354, "sum": 250419.0, "rank": 2 }, "geometry": { "type": "Point", "coordinates": [ -79.467222707668, 43.653928550769699 ] } },
{ "type": "Feature", "properties": { "stop_code": 14701, "stop_name": "Jane", "stop_lat": 43.649968, "stop_lon": -79.483848, "sum": 9400.0, "rank": 52 }, "geometry": { "type": "Point", "coordinates": [ -79.483068320551496, 43.650028250668598 ] } },
{ "type": "Feature", "properties": { "stop_code": 14705, "stop_name": "Keele", "stop_lat": 43.655427, "stop_lon": -79.459586, "sum": 167216.0, "rank": 3 }, "geometry": { "type": "Point", "coordinates": [ -79.460172127897906, 43.655314851685304 ] } },
{ "type": "Feature", "properties": { "stop_code": 14720, "stop_name": "Kipling", "stop_lat": 43.637717, "stop_lon": -79.535511, "sum": 3592.0, "rank": 62 }, "geometry": { "type": "Point", "coordinates": [ -79.535710802604839, 43.637989638347776 ] } },
{ "type": "Feature", "properties": { "stop_code": 14733, "stop_name": "Lawrence West", "stop_lat": 43.715586, "stop_lon": -79.444126, "sum": 15424.0, "rank": 44 }, "geometry": { "type": "Point", "coordinates": [ -79.444173618152476, 43.715939073973637 ] } },
{ "type": "Feature", "properties": { "stop_code": 14737, "stop_name": "Main Street", "stop_lat": 43.689096, "stop_lon": -79.301708, "sum": 39725.0, "rank": 24 }, "geometry": { "type": "Point", "coordinates": [ -79.302207830596402, 43.689203494996292 ] } },
{ "type": "Feature", "properties": { "stop_code": 14746, "stop_name": "Ossington", "stop_lat": 43.662437, "stop_lon": -79.426176, "sum": 48968.0, "rank": 21 }, "geometry": { "type": "Point", "coordinates": [ -79.425894352970701, 43.662317767919809 ] } },
{ "type": "Feature", "properties": { "stop_code": 14747, "stop_name": "Pape", "stop_lat": 43.680042, "stop_lon": -79.344585, "sum": 18882.0, "rank": 39 }, "geometry": { "type": "Point", "coordinates": [ -79.345074051933807, 43.679785584719099 ] } },
{ "type": "Feature", "properties": { "stop_code": 14752, "stop_name": "Royal York", "stop_lat": 43.648282, "stop_lon": -79.511038, "sum": 7296.0, "rank": 56 }, "geometry": { "type": "Point", "coordinates": [ -79.511572401075824, 43.648148253359672 ] } },
{ "type": "Feature", "properties": { "stop_code": 14755, "stop_name": "Runnymede", "stop_lat": 43.651732, "stop_lon": -79.475954, "sum": 9150.0, "rank": 54 }, "geometry": { "type": "Point", "coordinates": [ -79.476406031488594, 43.651737927963595 ] } },
{ "type": "Feature", "properties": { "stop_code": 14762, "stop_name": "Scarborough Centre", "stop_lat": 43.774436, "stop_lon": -79.258212, "sum": 44623.0, "rank": 23 }, "geometry": { "type": "Point", "coordinates": [ -79.258343876462007, 43.774513684711401 ] } },
{ "type": "Feature", "properties": { "stop_code": 14777, "stop_name": "Spadina", "stop_lat": 43.667271, "stop_lon": -79.403784, "sum": 10140.0, "rank": 51 }, "geometry": { "type": "Point", "coordinates": [ -79.403995629564534, 43.667324988153318 ] } },
{ "type": "Feature", "properties": { "stop_code": 14784, "stop_name": "St George", "stop_lat": 43.668655, "stop_lon": -79.398053, "sum": 11525.0, "rank": 50 }, "geometry": { "type": "Point", "coordinates": [ -79.397786304079204, 43.668722725658114 ] } },
{ "type": "Feature", "properties": { "stop_code": 14797, "stop_name": "Wellesley", "stop_lat": 43.665358, "stop_lon": -79.383941, "sum": 26501.0, "rank": 29 }, "geometry": { "type": "Point", "coordinates": [ -79.384063495760969, 43.665333938387306 ] } },
{ "type": "Feature", "properties": { "stop_code": 14804, "stop_name": "Woodbine", "stop_lat": 43.68644, "stop_lon": -79.312471, "sum": 14618.0, "rank": 47 }, "geometry": { "type": "Point", "coordinates": [ -79.312546026939899, 43.686648758694993 ] } },
{ "type": "Feature", "properties": { "stop_code": 14808, "stop_name": "York Mills", "stop_lat": 43.74511, "stop_lon": -79.40634, "sum": 61410.0, "rank": 16 }, "geometry": { "type": "Point", "coordinates": [ -79.406532047103497, 43.744338946920408 ] } },
{ "type": "Feature", "properties": { "stop_code": 14111, "stop_name": "Finch", "stop_lat": 43.780147, "stop_lon": -79.415692, "sum": 38573.0, "rank": 25 }, "geometry": { "type": "Point", "coordinates": [ -79.415470987008874, 43.780246467838481 ] } },
{ "type": "Feature", "properties": { "stop_code": 13789, "stop_name": "North York Centre", "stop_lat": 43.767347, "stop_lon": -79.412492, "sum": 0.0, "rank": 66 }, "geometry": null },
{ "type": "Feature", "properties": { "stop_code": 13793, "stop_name": "Lawrence", "stop_lat": 43.725348, "stop_lon": -79.40229, "sum": 57831.0, "rank": 19 }, "geometry": { "type": "Point", "coordinates": [ -79.402042628032106, 43.725228696474694 ] } },
{ "type": "Feature", "properties": { "stop_code": 13802, "stop_name": "Summerhill", "stop_lat": 43.682049, "stop_lon": -79.390789, "sum": 58421.0, "rank": 18 }, "geometry": { "type": "Point", "coordinates": [ -79.390888094068501, 43.682119455697602 ] } },
{ "type": "Feature", "properties": { "stop_code": 13821, "stop_name": "St Patrick", "stop_lat": 43.655249, "stop_lon": -79.388388, "sum": 18792.0, "rank": 41 }, "geometry": { "type": "Point", "coordinates": [ -79.388275855649312, 43.65542501431441 ] } },
{ "type": "Feature", "properties": { "stop_code": 13825, "stop_name": "Museum", "stop_lat": 43.667249, "stop_lon": -79.393389, "sum": 59423.0, "rank": 17 }, "geometry": { "type": "Point", "coordinates": [ -79.393686825881147, 43.667227421884959 ] } },
{ "type": "Feature", "properties": { "stop_code": 13837, "stop_name": "Yorkdale", "stop_lat": 43.725248, "stop_lon": -79.447692, "sum": 93048.0, "rank": 11 }, "geometry": { "type": "Point", "coordinates": [ -79.44785104950553, 43.725600607140777 ] } },
{ "type": "Feature", "properties": { "stop_code": 14945, "stop_name": "Sheppard West", "stop_lat": 43.750204, "stop_lon": -79.462781, "sum": 24786.0, "rank": 30 }, "geometry": { "type": "Point", "coordinates": [ -79.461741630435029, 43.749745860859861 ] } },
{ "type": "Feature", "properties": { "stop_code": 13839, "stop_name": "Wilson", "stop_lat": 43.733848, "stop_lon": -79.449892, "sum": 48.0, "rank": 65 }, "geometry": { "type": "Point", "coordinates": [ -79.450497749812243, 43.733999259198661 ] } },
{ "type": "Feature", "properties": { "stop_code": 13808, "stop_name": "College", "stop_lat": 43.661449, "stop_lon": -79.383088, "sum": 19548.0, "rank": 37 }, "geometry": { "type": "Point", "coordinates": [ -79.383230754594805, 43.661459309401202 ] } },
{ "type": "Feature", "properties": { "stop_code": 13796, "stop_name": "Eglinton", "stop_lat": 43.706548, "stop_lon": -79.39839, "sum": 18827.0, "rank": 40 }, "geometry": { "type": "Point", "coordinates": [ -79.398430530596201, 43.706597046306399 ] } },
{ "type": "Feature", "properties": { "stop_code": 13768, "stop_name": "Lansdowne", "stop_lat": 43.659246, "stop_lon": -79.442463, "sum": 5376.0, "rank": 58 }, "geometry": { "type": "Point", "coordinates": [ -79.442866923740155, 43.659081542578122 ] } },
{ "type": "Feature", "properties": { "stop_code": 13757, "stop_name": "Bay", "stop_lat": 43.670149, "stop_lon": -79.390089, "sum": 17741.0, "rank": 42 }, "geometry": { "type": "Point", "coordinates": [ -79.389933429322696, 43.670475936715 ] } },
{ "type": "Feature", "properties": { "stop_code": 13748, "stop_name": "Chester", "stop_lat": 43.678241, "stop_lon": -79.352502, "sum": 20077.0, "rank": 36 }, "geometry": { "type": "Point", "coordinates": [ -79.352219594292905, 43.678281704266205 ] } },
{ "type": "Feature", "properties": { "stop_code": 14947, "stop_name": "Kennedy", "stop_lat": 43.732487, "stop_lon": -79.263718, "sum": 6007.0, "rank": 57 }, "geometry": { "type": "Point", "coordinates": [ -79.264504887329807, 43.732857360240985 ] } },
{ "type": "Feature", "properties": { "stop_code": 13731, "stop_name": "Warden", "stop_lat": 43.710949, "stop_lon": -79.279085, "sum": 139331.0, "rank": 4 }, "geometry": { "type": "Point", "coordinates": [ -79.280506968831574, 43.71130452445562 ] } },
{ "type": "Feature", "properties": { "stop_code": 13741, "stop_name": "Greenwood", "stop_lat": 43.682849, "stop_lon": -79.329987, "sum": 23868.0, "rank": 31 }, "geometry": { "type": "Point", "coordinates": [ -79.329938544797997, 43.682431238762994 ] } },
{ "type": "Feature", "properties": { "stop_code": 13754, "stop_name": "Sherbourne", "stop_lat": 43.672174, "stop_lon": -79.376173, "sum": 57060.0, "rank": 20 }, "geometry": { "type": "Point", "coordinates": [ -79.376661859124297, 43.672267594762388 ] } },
{ "type": "Feature", "properties": { "stop_code": 13766, "stop_name": "Dufferin", "stop_lat": 43.660549, "stop_lon": -79.43569, "sum": 27339.0, "rank": 28 }, "geometry": { "type": "Point", "coordinates": [ -79.435619771291698, 43.660254384972085 ] } },
{ "type": "Feature", "properties": { "stop_code": 13779, "stop_name": "Old Mill", "stop_lat": 43.650048, "stop_lon": -79.494892, "sum": 330926.0, "rank": 1 }, "geometry": { "type": "Point", "coordinates": [ -79.495146542022894, 43.649892067763588 ] } },
{ "type": "Feature", "properties": { "stop_code": 13862, "stop_name": "Sheppard-Yonge", "stop_lat": 43.761494, "stop_lon": -79.410394, "sum": 4927.0, "rank": 59 }, "geometry": { "type": "Point", "coordinates": [ -79.411656292834195, 43.761486264414792 ] } },
{ "type": "Feature", "properties": { "stop_code": 13845, "stop_name": "Bessarion", "stop_lat": 43.769202, "stop_lon": -79.376312, "sum": 38162.0, "rank": 26 }, "geometry": { "type": "Point", "coordinates": [ -79.375982403649473, 43.769204037380682 ] } },
{ "type": "Feature", "properties": { "stop_code": 13847, "stop_name": "Leslie", "stop_lat": 43.771248, "stop_lon": -79.36679, "sum": 92386.0, "rank": 12 }, "geometry": { "type": "Point", "coordinates": [ -79.367382667880506, 43.770775214546205 ] } },
{ "type": "Feature", "properties": { "stop_code": 14618, "stop_name": "Bathurst", "stop_lat": 43.665925, "stop_lon": -79.411029, "sum": 8133.0, "rank": 55 }, "geometry": { "type": "Point", "coordinates": [ -79.411387900878481, 43.665902916465072 ] } },
{ "type": "Feature", "properties": { "stop_code": 14678, "stop_name": "Eglinton West", "stop_lat": 43.699706, "stop_lon": -79.436312, "sum": 22267.0, "rank": 34 }, "geometry": { "type": "Point", "coordinates": [ -79.435723157705297, 43.69893574847999 ] } },
{ "type": "Feature", "properties": { "stop_code": 14976, "stop_name": "Victoria Park", "stop_lat": 43.694411, "stop_lon": -79.289249, "sum": 102620.0, "rank": 8 }, "geometry": { "type": "Point", "coordinates": [ -79.289484138013293, 43.694440802095507 ] } },
{ "type": "Feature", "properties": { "stop_code": 15665, "stop_name": "Downsview Park", "stop_lat": 43.753311, "stop_lon": -79.478693, "sum": 0.0, "rank": 66 }, "geometry": { "type": "Point", "coordinates": [ -79.479510208929, 43.753238238012401 ] } },
{ "type": "Feature", "properties": { "stop_code": 15573, "stop_name": "Pioneer Village", "stop_lat": 43.776806, "stop_lon": -79.509408, "sum": 0.0, "rank": 66 }, "geometry": { "type": "Point", "coordinates": [ -79.510458025084205, 43.77689226682589 ] } },
{ "type": "Feature", "properties": { "stop_code": 15566, "stop_name": "Finch West", "stop_lat": 43.765126, "stop_lon": -79.490896, "sum": 281.0, "rank": 64 }, "geometry": { "type": "Point", "coordinates": [ -79.491223596720374, 43.765111053414294 ] } },
{ "type": "Feature", "properties": { "stop_code": 15889, "stop_name": "Queen's Park", "stop_lat": 43.659593, "stop_lon": -79.390491, "sum": 15717.0, "rank": 43 }, "geometry": { "type": "Point", "coordinates": [ -79.390682955061493, 43.659705088691986 ] } },
{ "type": "Feature", "properties": { "stop_code": 16048, "stop_name": "Islington", "stop_lat": 43.645156, "stop_lon": -79.523769, "sum": 102321.0, "rank": 9 }, "geometry": { "type": "Point", "coordinates": [ -79.523909433515541, 43.645246173942823 ] } },
{ "type": "Feature", "properties": { "stop_code": 15300, "stop_name": "Rosedale", "stop_lat": 43.676639, "stop_lon": -79.388776, "sum": 79895.0, "rank": 14 }, "geometry": { "type": "Point", "coordinates": [ -79.388965041893456, 43.676986844484695 ] } },
{ "type": "Feature", "properties": { "stop_code": 16372, "stop_name": "St.Clair West", "stop_lat": 43.683866, "stop_lon": -79.415157, "sum": 91845.0, "rank": 13 }, "geometry": { "type": "Point", "coordinates": [ -79.415279629298951, 43.683884349945387 ] } }
]
}
